{
    "airports": {
        "LAX": {"name": "Los Angeles International Airport", "city": "Los Angeles", "country": "United States", "lat": 33.9425, "lon": -118.408},
        "JFK": {"name": "John F. Kennedy International Airport", "city": "New York", "country": "United States", "lat": 40.6413, "lon": -73.7781},
        "ORD": {"name": "O'Hare International Airport", "city": "Chicago", "country": "United States", "lat": 41.9742, "lon": -87.9073},
        "ATL": {"name": "Hartsfield-Jackson Atlanta International Airport", "city": "Atlanta", "country": "United States", "lat": 33.6407, "lon": -84.4277},
        "DFW": {"name": "Dallas/Fort Worth International Airport", "city": "Dallas", "country": "United States", "lat": 32.8998, "lon": -97.0403},
        "DEN": {"name": "Denver International Airport", "city": "Denver", "country": "United States", "lat": 39.8561, "lon": -104.6737},
        "SFO": {"name": "San Francisco International Airport", "city": "San Francisco", "country": "United States", "lat": 37.6213, "lon": -122.379},
        "SEA": {"name": "Seattle-Tacoma International Airport", "city": "Seattle", "country": "United States", "lat": 47.4502, "lon": -122.3088},
        "MIA": {"name": "Miami International Airport", "city": "Miami", "country": "United States", "lat": 25.7959, "lon": -80.2871},
        "BOS": {"name": "Logan International Airport", "city": "Boston", "country": "United States", "lat": 42.3656, "lon": -71.0096},
        "LHR": {"name": "London Heathrow Airport", "city": "London", "country": "United Kingdom", "lat": 51.4700, "lon": -0.4543},
        "CDG": {"name": "Charles de Gaulle Airport", "city": "Paris", "country": "France", "lat": 49.0097, "lon": 2.5479},
        "FRA": {"name": "Frankfurt Airport", "city": "Frankfurt", "country": "Germany", "lat": 50.0379, "lon": 8.5622},
        "AMS": {"name": "Amsterdam Airport Schiphol", "city": "Amsterdam", "country": "Netherlands", "lat": 52.3105, "lon": 4.7683},
        "DXB": {"name": "Dubai International Airport", "city": "Dubai", "country": "United Arab Emirates", "lat": 25.2532, "lon": 55.3657},
        "HND": {"name": "Tokyo Haneda Airport", "city": "Tokyo", "country": "Japan", "lat": 35.5494, "lon": 139.7798},
        "SIN": {"name": "Singapore Changi Airport", "city": "Singapore", "country": "Singapore", "lat": 1.3644, "lon": 103.9915},
        "SYD": {"name": "Sydney Kingsford Smith Airport", "city": "Sydney", "country": "Australia", "lat": -33.9399, "lon": 151.1753},
        "GRU": {"name": "São Paulo/Guarulhos International Airport", "city": "São Paulo", "country": "Brazil", "lat": -23.4356, "lon": -46.4731},
        "JNB": {"name": "O. R. Tambo International Airport", "city": "Johannesburg", "country": "South Africa", "lat": -26.1337, "lon": 28.2420},
        "YYZ": {"name": "Toronto Pearson International Airport", "city": "Toronto", "country": "Canada", "lat": 43.6777, "lon": -79.6248},
        "MEX": {"name": "Mexico City International Airport", "city": "Mexico City", "country": "Mexico", "lat": 19.4363, "lon": -99.0721},
        "EZE": {"name": "Ministro Pistarini International Airport", "city": "Buenos Aires", "country": "Argentina", "lat": -34.8222, "lon": -58.5358},
        "BOG": {"name": "El Dorado International Airport", "city": "Bogotá", "country": "Colombia", "lat": 4.7016, "lon": -74.1469},
        "LIM": {"name": "Jorge Chávez International Airport", "city": "Lima", "country": "Peru", "lat": -12.0219, "lon": -77.1143},
        "SCL": {"name": "Arturo Merino Benítez International Airport", "city": "Santiago", "country": "Chile", "lat": -33.3930, "lon": -70.7858},
        "GIG": {"name": "Rio de Janeiro–Galeão International Airport", "city": "Rio de Janeiro", "country": "Brazil", "lat": -22.8100, "lon": -43.2506},
        "PTY": {"name": "Tocumen International Airport", "city": "Panama City", "country": "Panama", "lat": 9.0714, "lon": -79.3835},
        "SJO": {"name": "Juan Santamaría International Airport", "city": "San José", "country": "Costa Rica", "lat": 9.9939, "lon": -84.2088},
        "UIO": {"name": "Mariscal Sucre International Airport", "city": "Quito", "country": "Ecuador", "lat": -0.1292, "lon": -78.3575},
        "HAV": {"name": "José Martí International Airport", "city": "Havana", "country": "Cuba", "lat": 22.9892, "lon": -82.4091},
        "KIN": {"name": "Norman Manley International Airport", "city": "Kingston", "country": "Jamaica", "lat": 17.9357, "lon": -76.7875},
        "MAD": {"name": "Adolfo Suárez Madrid–Barajas Airport", "city": "Madrid", "country": "Spain", "lat": 40.4719, "lon": -3.5626},
        "FCO": {"name": "Leonardo da Vinci–Fiumicino Airport", "city": "Rome", "country": "Italy", "lat": 41.8003, "lon": 12.2389},
        "BCN": {"name": "Barcelona–El Prat Airport", "city": "Barcelona", "country": "Spain", "lat": 41.2971, "lon": 2.0785},
        "MXP": {"name": "Milan Malpensa Airport", "city": "Milan", "country": "Italy", "lat": 45.6306, "lon": 8.7281},
        "VIE": {"name": "Vienna International Airport", "city": "Vienna", "country": "Austria", "lat": 48.1103, "lon": 16.5697},
        "ZRH": {"name": "Zurich Airport", "city": "Zurich", "country": "Switzerland", "lat": 47.4647, "lon": 8.5492},
        "BRU": {"name": "Brussels Airport", "city": "Brussels", "country": "Belgium", "lat": 50.9010, "lon": 4.4844},
        "CPH": {"name": "Copenhagen Airport", "city": "Copenhagen", "country": "Denmark", "lat": 55.6180, "lon": 12.6561},
        "OSL": {"name": "Oslo Airport", "city": "Oslo", "country": "Norway", "lat": 60.1939, "lon": 11.1004},
        "ARN": {"name": "Stockholm Arlanda Airport", "city": "Stockholm", "country": "Sweden", "lat": 59.6519, "lon": 17.9186},
        "HEL": {"name": "Helsinki-Vantaa Airport", "city": "Helsinki", "country": "Finland", "lat": 60.3172, "lon": 24.9633},
        "DUB": {"name": "Dublin Airport", "city": "Dublin", "country": "Ireland", "lat": 53.4213, "lon": -6.2701},
        "LIS": {"name": "Lisbon Portela Airport", "city": "Lisbon", "country": "Portugal", "lat": 38.7813, "lon": -9.1359},
        "ATH": {"name": "Athens International Airport", "city": "Athens", "country": "Greece", "lat": 37.9364, "lon": 23.9445},
        "IST": {"name": "Istanbul Airport", "city": "Istanbul", "country": "Turkey", "lat": 41.2753, "lon": 28.7519},
        "SVO": {"name": "Sheremetyevo International Airport", "city": "Moscow", "country": "Russia", "lat": 55.9726, "lon": 37.4146},
        "WAW": {"name": "Warsaw Chopin Airport", "city": "Warsaw", "country": "Poland", "lat": 52.1657, "lon": 20.9671},
        "PRG": {"name": "Václav Havel Airport Prague", "city": "Prague", "country": "Czech Republic", "lat": 50.1008, "lon": 14.2600},
        "BUD": {"name": "Budapest Ferenc Liszt International Airport", "city": "Budapest", "country": "Hungary", "lat": 47.4297, "lon": 19.2611},
        "OTP": {"name": "Henri Coandă International Airport", "city": "Bucharest", "country": "Romania", "lat": 44.5711, "lon": 26.0850},
        "SOF": {"name": "Sofia Airport", "city": "Sofia", "country": "Bulgaria", "lat": 42.6952, "lon": 23.4114},
        "BEG": {"name": "Belgrade Nikola Tesla Airport", "city": "Belgrade", "country": "Serbia", "lat": 44.8184, "lon": 20.3091},
        "ZAG": {"name": "Zagreb Airport", "city": "Zagreb", "country": "Croatia", "lat": 45.7429, "lon": 16.0688},
        "KEF": {"name": "Keflavík International Airport", "city": "Reykjavik", "country": "Iceland", "lat": 63.9850, "lon": -22.6056},
        "CAI": {"name": "Cairo International Airport", "city": "Cairo", "country": "Egypt", "lat": 30.1219, "lon": 31.4056},
        "ADD": {"name": "Addis Ababa Bole International Airport", "city": "Addis Ababa", "country": "Ethiopia", "lat": 8.9779, "lon": 38.7992},
        "NBO": {"name": "Jomo Kenyatta International Airport", "city": "Nairobi", "country": "Kenya", "lat": -1.3192, "lon": 36.9278},
        "CPT": {"name": "Cape Town International Airport", "city": "Cape Town", "country": "South Africa", "lat": -33.9649, "lon": 18.6017},
        "DUR": {"name": "King Shaka International Airport", "city": "Durban", "country": "South Africa", "lat": -29.6144, "lon": 31.1197},
        "LOS": {"name": "Murtala Muhammed International Airport", "city": "Lagos", "country": "Nigeria", "lat": 6.5774, "lon": 3.3212},
        "ACC": {"name": "Kotoka International Airport", "city": "Accra", "country": "Ghana", "lat": 5.6052, "lon": -0.1668},
        "TNR": {"name": "Ivato International Airport", "city": "Antananarivo", "country": "Madagascar", "lat": -18.7969, "lon": 47.4788},
        "CMN": {"name": "Mohammed V International Airport", "city": "Casablanca", "country": "Morocco", "lat": 33.3675, "lon": -7.5898},
        "TUN": {"name": "Tunis–Carthage International Airport", "city": "Tunis", "country": "Tunisia", "lat": 36.8510, "lon": 10.2272},
        "ALG": {"name": "Houari Boumediene Airport", "city": "Algiers", "country": "Algeria", "lat": 36.6910, "lon": 3.2154},
        "DAR": {"name": "Julius Nyerere International Airport", "city": "Dar es Salaam", "country": "Tanzania", "lat": -6.8781, "lon": 39.2026},
        "KGL": {"name": "Kigali International Airport", "city": "Kigali", "country": "Rwanda", "lat": -1.9686, "lon": 30.1395},
        "EBB": {"name": "Entebbe International Airport", "city": "Entebbe", "country": "Uganda", "lat": 0.0424, "lon": 32.4435},
        "MBA": {"name": "Moi International Airport", "city": "Mombasa", "country": "Kenya", "lat": -4.0348, "lon": 39.5942},
        "PEK": {"name": "Beijing Capital International Airport", "city": "Beijing", "country": "China", "lat": 40.0801, "lon": 116.5846},
        "PVG": {"name": "Shanghai Pudong International Airport", "city": "Shanghai", "country": "China", "lat": 31.1443, "lon": 121.8083},
        "CAN": {"name": "Guangzhou Baiyun International Airport", "city": "Guangzhou", "country": "China", "lat": 23.3924, "lon": 113.2988},
        "ICN": {"name": "Incheon International Airport", "city": "Seoul", "country": "South Korea", "lat": 37.4691, "lon": 126.4509},
        "NRT": {"name": "Narita International Airport", "city": "Tokyo", "country": "Japan", "lat": 35.7647, "lon": 140.3864},
        "KIX": {"name": "Kansai International Airport", "city": "Osaka", "country": "Japan", "lat": 34.4273, "lon": 135.2444},
        "HKG": {"name": "Hong Kong International Airport", "city": "Hong Kong", "country": "Hong Kong", "lat": 22.3080, "lon": 113.9185},
        "TPE": {"name": "Taiwan Taoyuan International Airport", "city": "Taipei", "country": "Taiwan", "lat": 25.0777, "lon": 121.2328},
        "BKK": {"name": "Suvarnabhumi Airport", "city": "Bangkok", "country": "Thailand", "lat": 13.6900, "lon": 100.7501},
        "KUL": {"name": "Kuala Lumpur International Airport", "city": "Kuala Lumpur", "country": "Malaysia", "lat": 2.7456, "lon": 101.7099},
        "CGK": {"name": "Soekarno–Hatta International Airport", "city": "Jakarta", "country": "Indonesia", "lat": -6.1256, "lon": 106.6559},
        "MNL": {"name": "Ninoy Aquino International Airport", "city": "Manila", "country": "Philippines", "lat": 14.5086, "lon": 121.0194},
        "SGN": {"name": "Tan Son Nhat International Airport", "city": "Ho Chi Minh City", "country": "Vietnam", "lat": 10.8188, "lon": 106.6519},
        "HAN": {"name": "Noi Bai International Airport", "city": "Hanoi", "country": "Vietnam", "lat": 21.2212, "lon": 105.8072},
        "DEL": {"name": "Indira Gandhi International Airport", "city": "New Delhi", "country": "India", "lat": 28.5665, "lon": 77.1031},
        "BOM": {"name": "Chhatrapati Shivaji Maharaj International Airport", "city": "Mumbai", "country": "India", "lat": 19.0896, "lon": 72.8656},
        "BLR": {"name": "Kempegowda International Airport", "city": "Bangalore", "country": "India", "lat": 13.1979, "lon": 77.7063},
        "ISB": {"name": "Islamabad International Airport", "city": "Islamabad", "country": "Pakistan", "lat": 33.5490, "lon": 72.8258},
        "KHI": {"name": "Jinnah International Airport", "city": "Karachi", "country": "Pakistan", "lat": 24.9065, "lon": 67.1608},
        "DAC": {"name": "Hazrat Shahjalal International Airport", "city": "Dhaka", "country": "Bangladesh", "lat": 23.8433, "lon": 90.3978},
        "CMB": {"name": "Bandaranaike International Airport", "city": "Colombo", "country": "Sri Lanka", "lat": 7.1808, "lon": 79.8841},
        "KTM": {"name": "Tribhuvan International Airport", "city": "Kathmandu", "country": "Nepal", "lat": 27.6966, "lon": 85.3591},
        "RGN": {"name": "Yangon International Airport", "city": "Yangon", "country": "Myanmar", "lat": 16.9073, "lon": 96.1332},
        "DOH": {"name": "Hamad International Airport", "city": "Doha", "country": "Qatar", "lat": 25.2731, "lon": 51.6080},
        "AUH": {"name": "Abu Dhabi International Airport", "city": "Abu Dhabi", "country": "United Arab Emirates", "lat": 24.4330, "lon": 54.6511},
        "BAH": {"name": "Bahrain International Airport", "city": "Manama", "country": "Bahrain", "lat": 26.2708, "lon": 50.6336},
        "KWI": {"name": "Kuwait International Airport", "city": "Kuwait City", "country": "Kuwait", "lat": 29.2266, "lon": 47.9689},
        "RUH": {"name": "King Khalid International Airport", "city": "Riyadh", "country": "Saudi Arabia", "lat": 24.9576, "lon": 46.6988},
        "JED": {"name": "King Abdulaziz International Airport", "city": "Jeddah", "country": "Saudi Arabia", "lat": 21.6796, "lon": 39.1565},
        "MCT": {"name": "Muscat International Airport", "city": "Muscat", "country": "Oman", "lat": 23.5933, "lon": 58.2844},
        "AMM": {"name": "Queen Alia International Airport", "city": "Amman", "country": "Jordan", "lat": 31.7226, "lon": 35.9932},
        "BEY": {"name": "Rafic Hariri International Airport", "city": "Beirut", "country": "Lebanon", "lat": 33.8209, "lon": 35.4884},
        "TLV": {"name": "Ben Gurion Airport", "city": "Tel Aviv", "country": "Israel", "lat": 32.0114, "lon": 34.8867},
        "MEL": {"name": "Melbourne Airport", "city": "Melbourne", "country": "Australia", "lat": -37.6690, "lon": 144.8410},
        "BNE": {"name": "Brisbane Airport", "city": "Brisbane", "country": "Australia", "lat": -27.3842, "lon": 153.1175},
        "PER": {"name": "Perth Airport", "city": "Perth", "country": "Australia", "lat": -31.9403, "lon": 115.9672},
        "AKL": {"name": "Auckland Airport", "city": "Auckland", "country": "New Zealand", "lat": -37.0082, "lon": 174.7850},
        "CHC": {"name": "Christchurch International Airport", "city": "Christchurch", "country": "New Zealand", "lat": -43.4894, "lon": 172.5320},
        "NAN": {"name": "Nadi International Airport", "city": "Nadi", "country": "Fiji", "lat": -17.7554, "lon": 177.4433},
        "PPT": {"name": "Fa'a'ā International Airport", "city": "Papeete", "country": "French Polynesia", "lat": -17.5537, "lon": -149.6070},
        "NOU": {"name": "La Tontouta International Airport", "city": "Nouméa", "country": "New Caledonia", "lat": -22.0146, "lon": 166.2130},
        "YVR": {"name": "Vancouver International Airport", "city": "Vancouver", "country": "Canada", "lat": 49.1939, "lon": -123.1844},
        "YUL": {"name": "Montréal-Pierre Elliott Trudeau International Airport", "city": "Montreal", "country": "Canada", "lat": 45.4706, "lon": -73.7408},
        "YYC": {"name": "Calgary International Airport", "city": "Calgary", "country": "Canada", "lat": 51.1139, "lon": -114.0203},
        "LAS": {"name": "Harry Reid International Airport", "city": "Las Vegas", "country": "United States", "lat": 36.0840, "lon": -115.1537},
        "MCO": {"name": "Orlando International Airport", "city": "Orlando", "country": "United States", "lat": 28.4294, "lon": -81.3089},
        "PHX": {"name": "Phoenix Sky Harbor International Airport", "city": "Phoenix", "country": "United States", "lat": 33.4342, "lon": -112.0080},
        "IAH": {"name": "George Bush Intercontinental Airport", "city": "Houston", "country": "United States", "lat": 29.9844, "lon": -95.3414},
        "MSP": {"name": "Minneapolis–St. Paul International Airport", "city": "Minneapolis", "country": "United States", "lat": 44.8848, "lon": -93.2223},
        "DTW": {"name": "Detroit Metropolitan Wayne County Airport", "city": "Detroit", "country": "United States", "lat": 42.2124, "lon": -83.3534},
        "SAN": {"name": "San Diego International Airport", "city": "San Diego", "country": "United States", "lat": 32.7338, "lon": -117.1933},
        "CUN": {"name": "Cancún International Airport", "city": "Cancún", "country": "Mexico", "lat": 21.0365, "lon": -86.8770},
        "GDL": {"name": "Miguel Hidalgo y Costilla Guadalajara International Airport", "city": "Guadalajara", "country": "Mexico", "lat": 20.5218, "lon": -103.3106},
        "SDQ": {"name": "Las Américas International Airport", "city": "Santo Domingo", "country": "Dominican Republic", "lat": 18.4297, "lon": -69.6689},
        "NAS": {"name": "Lynden Pindling International Airport", "city": "Nassau", "country": "Bahamas", "lat": 25.0389, "lon": -77.4662},
        "BGI": {"name": "Grantley Adams International Airport", "city": "Bridgetown", "country": "Barbados", "lat": 13.0746, "lon": -59.4925},
        "GEO": {"name": "Cheddi Jagan International Airport", "city": "Georgetown", "country": "Guyana", "lat": 6.4985, "lon": -58.2541},
        "PBM": {"name": "Johan Adolf Pengel International Airport", "city": "Paramaribo", "country": "Suriname", "lat": 5.4528, "lon": -55.1878},
        "BSB": {"name": "Brasília International Airport", "city": "Brasília", "country": "Brazil", "lat": -15.8697, "lon": -47.9208},
        "MVD": {"name": "Carrasco International Airport", "city": "Montevideo", "country": "Uruguay", "lat": -34.8384, "lon": -56.0308},
        "ASU": {"name": "Silvio Pettirossi International Airport", "city": "Asunción", "country": "Paraguay", "lat": -25.2400, "lon": -57.5196},
        "LPB": {"name": "El Alto International Airport", "city": "La Paz", "country": "Bolivia", "lat": -16.5133, "lon": -68.1923},
        "GYE": {"name": "José Joaquín de Olmedo International Airport", "city": "Guayaquil", "country": "Ecuador", "lat": -2.1574, "lon": -79.8836},
        "CCS": {"name": "Simón Bolívar International Airport", "city": "Caracas", "country": "Venezuela", "lat": 10.6013, "lon": -66.9915}
    }
}